{
  "seasons": [
    "2023",
    "2024"
  ],
  "cv_frames": {
    "target_fps": 5,
    "frames_per_video": 11
  },
  "inference": {
    "hit_threshold": 130,
    "near_threshold": 250,
    "alpha": 0.5,
    "left_wheel_x_pct": 0.18,
    "right_wheel_x_pct": 0.85,
    "wheel_y_pct": 0.60
  },
  "satellite": {
    "image_width": 1280,
    "image_height": 1280,
    "zoom_level": 15,
    "circuits": [
      { "name": "Bahrain Grand Prix", "lat": 26.0325, "lon": 50.5106 },
      { "name": "Saudi Arabian Grand Prix", "lat": 21.6319, "lon": 39.1044 },
      { "name": "Australian Grand Prix", "lat": -37.8497, "lon": 144.9680 },
      { "name": "Japanese Grand Prix", "lat": 34.8431, "lon": 136.5407 },
      { "name": "Chinese Grand Prix", "lat": 31.3389, "lon": 121.2197 },
      { "name": "Miami Grand Prix", "lat": 25.9581, "lon": -80.2389 },
      { "name": "Emilia Romagna Grand Prix", "lat": 44.3439, "lon": 11.7167 },
      { "name": "Monaco Grand Prix", "lat": 43.7347, "lon": 7.4206 },
      { "name": "Canadian Grand Prix", "lat": 45.5000, "lon": -73.5228 },
      { "name": "Spanish Grand Prix", "lat": 41.5700, "lon": 2.2611 },
      { "name": "Austrian Grand Prix", "lat": 47.2197, "lon": 14.7647 },
      { "name": "British Grand Prix", "lat": 52.0786, "lon": -1.0169 },
      { "name": "Hungarian Grand Prix", "lat": 47.5789, "lon": 19.2486 },
      { "name": "Belgian Grand Prix", "lat": 50.4372, "lon": 5.9714 },
      { "name": "Dutch Grand Prix", "lat": 52.3888, "lon": 4.5409 },
      { "name": "Italian Grand Prix", "lat": 45.6156, "lon": 9.2811 },
      { "name": "Azerbaijan Grand Prix", "lat": 40.3725, "lon": 49.8533 },
      { "name": "Singapore Grand Prix", "lat": 1.2914, "lon": 103.8636 },
      { "name": "United States Grand Prix", "lat": 30.1328, "lon": -97.6411 },
      { "name": "Mexico City Grand Prix", "lat": 19.4042, "lon": -99.0907 },
      { "name": "São Paulo Grand Prix", "lat": -23.7036, "lon": -46.6997 },
      { "name": "Las Vegas Grand Prix", "lat": 36.1147, "lon": -115.1728 },
      { "name": "Qatar Grand Prix", "lat": 25.4900, "lon": 51.4542 },
      { "name": "Abu Dhabi Grand Prix", "lat": 24.4672, "lon": 54.6031 }
    ]
  },
  "manual_downloads": {
    "19_unitedstates_nor_pole": "https://youtu.be/sC8pW4HsOs4",
    "20_mexico_sai_pole": "https://youtu.be/wVFJP4ECnAc",
    "21_brazil_nor_pole": "https://youtu.be/ZhERj8n4HEQ",
    "22_lasvegas_rus_pole": "https://youtu.be/7N_GVP_CUqA",
    "23_qatar_ver_pole": "https://youtu.be/aMEoQSPRRh4",
    "24_abudhabi_nor_pole": "https://youtu.be/ul4wmQwxrwA"
  }
}
